,City,Lat,Lon,Max Temp,Humidity,Cloudiness,Wind Speed,Country,Date
0,egvekinot,66.32,-179.17,37.65,75,100,7.31,RU,1970-01-01
1,avarua,-21.21,-159.78,69.8,64,19,3.36,CK,1970-01-01
2,vaitupu,42.6,-73.97,70.0,67,12,14.12,US,1970-01-01
3,albany,-0.6,73.08,82.78,76,94,12.46,MV,1970-01-01
4,hithadhoo,40.43,71.72,78.8,14,100,6.93,UZ,1970-01-01
5,komsomolskiy,57.05,-135.33,53.6,76,90,3.29,US,1970-01-01
6,sitka,-21.34,55.48,68.0,94,75,13.87,RE,1970-01-01
7,saint-pierre,-37.62,-73.65,51.55,80,97,3.53,CL,1970-01-01
8,lebu,-23.12,-134.97,72.86,85,7,9.82,PF,1970-01-01
9,rikitea,60.14,-45.24,42.71,85,57,19.57,GL,1970-01-01
10,nanortalik,72.79,-56.15,35.22,93,100,11.36,GL,1970-01-01
11,upernavik,-42.78,147.06,61.0,48,100,13.87,AU,1970-01-01
12,new norfolk,-41.29,174.78,41.0,93,12,3.36,NZ,1970-01-01
13,wellington,13.59,-89.83,77.0,93,60,1.01,SV,1970-01-01
14,acajutla,-10.17,123.58,76.3,76,66,12.8,ID,1970-01-01
15,mys shmidta,71.69,128.87,42.96,84,26,4.94,RU,1970-01-01
16,kupang,77.48,-69.36,23.09,80,37,6.44,GL,1970-01-01
17,barentsburg,56.39,28.12,59.67,71,100,5.66,LV,1970-01-01
18,tiksi,25.52,90.22,75.49,90,94,4.45,IN,1970-01-01
19,qaanaaq,-54.8,-68.3,39.2,74,75,3.42,AR,1970-01-01
20,zilupe,-30.98,-54.67,59.29,73,93,13.56,BR,1970-01-01
21,tura,-33.65,115.33,50.0,69,5,9.84,AU,1970-01-01
22,ushuaia,11.0,122.67,78.4,88,90,2.57,PH,1970-01-01
23,dom pedrito,38.52,-28.7,71.6,68,40,25.28,PT,1970-01-01
24,busselton,14.47,-60.87,86.0,74,75,9.17,MQ,1970-01-01
25,dingle,-34.53,20.04,69.8,64,0,13.87,ZA,1970-01-01
26,ribeira grande,-21.2,-175.2,71.6,73,75,8.05,TO,1970-01-01
27,le marin,22.08,-159.32,80.6,78,75,10.29,US,1970-01-01
28,bredasdorp,64.57,143.2,41.54,79,100,6.55,RU,1970-01-01
29,vaini,1.0,-52.0,90.64,48,32,3.89,BR,1970-01-01
30,kapaa,71.92,114.08,43.45,63,0,8.95,RU,1970-01-01
31,ust-nera,-33.93,18.42,72.0,49,0,10.29,ZA,1970-01-01
32,amapa,43.1,-79.07,72.0,77,90,25.28,CA,1970-01-01
33,saskylakh,50.68,156.12,54.32,91,29,8.43,RU,1970-01-01
34,cape town,69.45,-133.04,42.8,87,75,14.99,CA,1970-01-01
35,niagara falls,-0.74,-90.35,64.99,96,100,5.99,EC,1970-01-01
36,severo-kurilsk,-33.59,26.89,67.28,76,9,12.17,ZA,1970-01-01
37,tidore,42.33,-83.33,73.4,83,90,12.75,US,1970-01-01
38,tuktoyaktuk,17.96,-102.2,78.3,80,45,4.7,MX,1970-01-01
39,puerto ayora,-42.88,147.33,61.0,48,100,13.87,AU,1970-01-01
40,port alfred,28.89,64.41,90.84,11,0,9.57,PK,1970-01-01
41,garden city,-16.48,-151.75,77.38,81,1,11.83,PF,1970-01-01
42,lazaro cardenas,-27.01,30.81,74.37,33,51,9.26,ZA,1970-01-01
43,hobart,-25.24,130.99,69.8,21,0,1.1,AU,1970-01-01
44,dalbandin,50.1,-91.92,41.0,75,40,13.87,CA,1970-01-01
45,faanui,-9.8,-139.03,77.81,78,5,19.8,PF,1970-01-01
46,piet retief,49.7,-112.82,42.8,93,90,13.87,CA,1970-01-01
47,yulara,50.23,-63.6,55.4,76,1,6.93,CA,1970-01-01
48,sioux lookout,41.67,-2.67,64.0,41,2,17.0,ES,1970-01-01
49,atuona,-34.42,19.23,72.0,63,0,5.99,ZA,1970-01-01
50,toliary,42.1,-79.24,63.0,87,90,11.41,US,1970-01-01
51,lethbridge,19.73,-155.09,73.4,88,20,6.93,US,1970-01-01
52,havre-saint-pierre,-33.87,121.9,50.0,93,40,4.7,AU,1970-01-01
53,soria,27.04,14.43,101.86,10,0,12.33,LY,1970-01-01
54,hermanus,-38.0,-57.56,46.4,100,40,5.82,AR,1970-01-01
55,jamestown,42.97,46.09,84.2,48,75,6.71,RU,1970-01-01
56,hilo,55.97,54.8,61.93,63,0,2.33,RU,1970-01-01
57,esperance,-46.28,169.85,42.01,87,24,4.68,NZ,1970-01-01
58,sabha,-46.19,168.86,45.0,72,29,11.01,NZ,1970-01-01
59,mar del plata,37.4,136.9,84.16,68,0,16.17,JP,1970-01-01
60,vedeno,-6.22,-57.75,86.0,74,90,3.42,BR,1970-01-01
61,kaltasy,-21.48,-56.14,81.45,54,100,6.4,BR,1970-01-01
62,kaitangata,18.42,84.05,82.71,84,62,6.4,IN,1970-01-01
63,mataura,-20.23,164.02,72.75,78,100,16.15,NC,1970-01-01
64,wajima,39.05,-27.98,69.53,75,72,22.59,PT,1970-01-01
65,jacareacanga,9.35,-65.32,82.08,84,0,3.96,VE,1970-01-01
66,jardim,-37.83,140.77,69.8,30,100,24.16,AU,1970-01-01
67,narasannapeta,20.7,-105.2,78.01,100,40,4.7,MX,1970-01-01
68,poum,47.67,-52.73,64.0,67,20,11.41,CA,1970-01-01
69,lagoa,-8.93,125.41,56.07,76,53,3.71,TL,1970-01-01
70,zaraza,51.02,45.7,73.87,24,0,9.46,RU,1970-01-01
71,illoqqortoormiut,30.75,73.03,91.83,39,0,2.15,PK,1970-01-01
72,mount gambier,70.63,147.92,36.81,86,73,7.0,RU,1970-01-01
73,ixtapa,50.35,90.5,39.27,72,3,2.66,RU,1970-01-01
74,torbay,6.3,-10.8,86.0,70,75,10.29,LR,1970-01-01
75,grand river south east,40.6,-124.16,64.4,63,1,10.29,US,1970-01-01
76,airai,-53.15,-70.92,41.0,86,100,5.82,CL,1970-01-01
77,krasnoarmeysk,64.38,-173.3,40.68,70,100,17.54,RU,1970-01-01
78,chak azam sahu,24.09,32.91,115.2,8,3,11.59,EG,1970-01-01
79,chokurdakh,20.0,-3.0,103.89,15,1,3.89,ML,1970-01-01
80,mugur-aksy,-33.7,-53.46,57.92,66,0,10.09,UY,1970-01-01
81,monrovia,29.03,21.55,96.39,17,0,9.71,LY,1970-01-01
82,fortuna,-22.0,148.05,61.03,84,0,11.03,AU,1970-01-01
83,punta arenas,-8.84,13.23,78.8,74,40,10.29,AO,1970-01-01
84,provideniya,-16.52,-151.75,78.22,79,1,11.79,PF,1970-01-01
85,aswan,18.09,-67.15,87.01,75,17,4.0,PR,1970-01-01
86,tombouctou,-34.05,23.37,64.13,73,0,8.08,ZA,1970-01-01
87,chuy,48.22,46.83,79.41,25,9,13.51,RU,1970-01-01
88,jalu,26.93,-80.09,84.99,88,1,5.82,US,1970-01-01
89,moranbah,46.42,3.91,77.0,33,0,11.41,FR,1970-01-01
90,luanda,70.02,135.6,42.26,90,100,3.69,RU,1970-01-01
91,vaitape,-9.01,-35.22,79.5,65,0,9.8,BR,1970-01-01
92,cabo rojo,-21.36,55.77,68.0,94,75,13.87,RE,1970-01-01
93,plettenberg bay,39.18,-84.53,75.99,68,78,1.01,US,1970-01-01
94,nizhniy baskunchak,-45.42,167.72,37.98,86,6,1.54,NZ,1970-01-01
95,jupiter,59.7,30.79,64.4,63,75,8.95,RU,1970-01-01
96,saint-francois,-10.0,39.72,84.2,51,40,17.22,TZ,1970-01-01
97,ust-kuyga,-30.18,-50.21,58.75,89,100,12.75,BR,1970-01-01
98,ijaki,30.99,103.94,84.2,58,26,6.71,CN,1970-01-01
99,maragogi,3.07,172.79,82.67,77,6,9.71,KI,1970-01-01
100,saint-philippe,35.73,140.83,79.0,94,40,9.17,JP,1970-01-01
101,hamilton,30.48,-115.95,77.02,61,0,3.87,MX,1970-01-01
102,te anau,54.63,-8.45,63.0,100,90,12.75,IE,1970-01-01
103,nikolskoye,62.0,132.43,44.13,89,41,6.8,RU,1970-01-01
104,lindi,62.46,-114.35,39.99,73,75,2.24,CA,1970-01-01
105,cidreira,38.42,-121.42,73.99,73,1,3.36,US,1970-01-01
106,tianpeng,57.31,88.17,45.03,92,9,2.17,RU,1970-01-01
107,butaritari,44.76,-85.62,64.4,55,75,16.11,US,1970-01-01
108,hasaki,36.9,-104.44,57.0,50,1,6.93,US,1970-01-01
109,san quintin,-17.73,-149.15,73.4,83,20,5.82,PF,1970-01-01
110,killybegs,-34.58,150.86,60.01,80,1,1.01,AU,1970-01-01
111,churapcha,-17.93,19.77,90.21,11,0,10.49,NA,1970-01-01
112,yellowknife,78.22,15.64,41.0,75,75,9.17,SJ,1970-01-01
113,laguna,37.52,42.46,102.2,9,0,17.22,TR,1970-01-01
114,teguldet,-33.92,25.57,66.2,77,20,10.29,ZA,1970-01-01
115,traverse city,34.33,71.18,89.6,43,20,6.93,PK,1970-01-01
116,raton,53.45,89.53,41.56,88,1,2.08,RU,1970-01-01
117,tautira,-8.27,-72.74,88.03,56,28,2.42,BR,1970-01-01
118,flinders,5.41,100.34,80.6,88,20,2.24,MY,1970-01-01
119,rundu,21.46,-71.14,82.18,77,100,13.91,TC,1970-01-01
120,longyearbyen,40.16,-8.33,88.0,37,0,8.32,PT,1970-01-01
121,sirnak,6.37,126.17,84.25,74,100,9.24,PH,1970-01-01
122,belushya guba,53.71,37.29,73.96,48,100,6.82,RU,1970-01-01
123,port elizabeth,-32.72,152.15,60.01,72,0,8.05,AU,1970-01-01
124,shinpokh,-38.27,141.97,68.5,35,100,24.02,AU,1970-01-01
125,biskamzha,58.81,-122.7,32.0,95,90,4.7,CA,1970-01-01
126,porto walter,-20.34,57.76,75.2,83,75,11.41,MU,1970-01-01
127,georgetown,-20.33,-40.29,82.0,65,20,13.87,BR,1970-01-01
128,cockburn town,12.35,29.25,87.94,52,25,9.17,SD,1970-01-01
129,lata,-40.81,-63.0,55.0,64,0,8.01,AR,1970-01-01
130,lolua,-33.37,116.15,48.99,69,0,3.65,AU,1970-01-01
131,pundaguitan,70.03,20.97,55.4,82,20,4.7,NO,1970-01-01
132,plavsk,57.79,-152.41,57.2,76,75,9.17,US,1970-01-01
133,nelson bay,-24.87,113.63,68.0,77,58,16.11,AU,1970-01-01
134,codrington,-22.12,14.28,55.99,89,8,7.0,NA,1970-01-01
135,fort nelson,33.34,44.4,113.9,6,0,6.96,IQ,1970-01-01
136,bambous virieux,17.65,83.27,86.0,79,40,6.93,IN,1970-01-01
137,vila velha,-2.57,150.8,82.9,79,2,15.5,PG,1970-01-01
138,abu zabad,64.3,41.92,59.0,87,75,4.47,RU,1970-01-01
139,sataua,-46.13,167.68,45.0,72,11,11.01,NZ,1970-01-01
140,viedma,51.32,42.77,80.01,20,100,7.38,RU,1970-01-01
141,collie,-12.74,-60.15,89.6,31,24,5.82,BR,1970-01-01
142,skjervoy,0.6,-80.03,73.98,81,100,7.45,EC,1970-01-01
143,kodiak,66.04,-17.34,48.2,88,75,12.75,IS,1970-01-01
144,carnarvon,-29.95,-71.34,53.6,76,75,11.41,CL,1970-01-01
145,henties bay,38.6,-77.16,75.0,94,1,4.7,US,1970-01-01
146,baghdad,-17.71,-39.25,80.55,65,57,9.46,BR,1970-01-01
147,yarada,-35.17,173.17,50.29,79,0,7.29,NZ,1970-01-01
148,kavieng,-46.6,168.33,45.0,72,18,11.01,NZ,1970-01-01
149,lukovetskiy,59.65,67.41,51.66,70,100,5.79,RU,1970-01-01
150,tuatapere,50.03,-66.87,57.0,81,75,6.93,CA,1970-01-01
151,kamenka,51.55,-9.27,68.0,72,75,19.46,IE,1970-01-01
152,vilhena,14.9,-24.5,79.61,80,27,10.83,CV,1970-01-01
153,muisne,-33.02,27.91,68.0,72,20,10.29,ZA,1970-01-01
154,husavik,33.19,-82.53,75.2,57,1,9.17,US,1970-01-01
155,coquimbo,-34.65,-59.43,59.0,62,73,4.0,AR,1970-01-01
156,indian head,-31.67,18.5,85.01,21,0,11.43,ZA,1970-01-01
157,caravelas,5.33,103.14,84.2,79,20,5.14,MY,1970-01-01
158,ahipara,55.74,-97.86,37.4,83,90,13.87,CA,1970-01-01
159,bluff,-8.47,140.33,78.96,82,46,14.97,ID,1970-01-01
160,kondinskoye,-33.01,17.94,78.8,41,0,9.17,ZA,1970-01-01
161,port-cartier,-24.79,-50.01,73.62,58,17,5.59,BR,1970-01-01
162,skibbereen,66.83,70.83,50.32,50,89,6.6,RU,1970-01-01
163,sao filipe,36.96,36.2,86.0,78,0,10.0,TR,1970-01-01
164,east london,10.37,10.73,88.21,54,18,1.43,NG,1970-01-01
165,avera,22.57,59.53,89.92,50,0,0.98,OM,1970-01-01
166,longlac,-12.63,-41.03,81.82,43,76,6.31,BR,1970-01-01
167,mercedes,-0.91,122.88,75.67,86,92,6.46,ID,1970-01-01
168,vredendal,13.22,-59.52,86.0,74,75,11.41,BB,1970-01-01
169,attawapiskat,11.5,42.5,91.4,66,1,11.41,DJ,1970-01-01
170,kuala terengganu,-6.88,112.21,81.25,74,30,6.15,ID,1970-01-01
171,phan rang,-9.66,120.26,75.42,84,100,8.88,ID,1970-01-01
172,thompson,69.49,88.4,51.8,93,75,8.95,RU,1970-01-01
173,merauke,69.7,170.31,41.47,82,80,11.34,RU,1970-01-01
174,saldanha,60.0,-1.25,55.4,93,90,21.92,GB,1970-01-01
175,jiroft,69.22,-51.1,39.2,86,75,9.17,GL,1970-01-01
176,castro,5.56,95.32,81.61,77,99,5.53,ID,1970-01-01
177,yar-sale,-35.33,-72.42,54.14,73,51,1.14,CL,1970-01-01
178,wulanhaote,-9.08,143.21,78.24,87,100,18.34,PG,1970-01-01
179,erzin,44.37,-100.35,57.0,66,75,9.17,US,1970-01-01
180,bara,73.51,80.55,43.92,76,100,18.68,RU,1970-01-01
181,sur,7.04,134.26,78.8,88,75,6.91,PW,1970-01-01
182,vera cruz,64.25,-15.21,57.2,54,40,9.17,IS,1970-01-01
183,biak,46.62,10.7,63.0,71,40,9.17,IT,1970-01-01
184,bathsheba,4.64,103.44,80.6,88,89,2.24,MY,1970-01-01
185,jibuti,33.27,129.88,77.0,88,20,13.87,JP,1970-01-01
186,saleaula,-28.77,114.6,50.0,87,0,3.36,AU,1970-01-01
187,labuhan,32.67,-17.1,75.99,68,1,5.01,PT,1970-01-01
188,waingapu,42.96,17.14,91.0,29,20,6.93,HR,1970-01-01
189,talnakh,37.8,-25.58,75.2,64,40,14.99,PT,1970-01-01
190,pevek,52.63,29.73,69.35,81,95,4.59,BY,1970-01-01
191,sandwick,35.01,37.05,106.11,9,4,18.34,SY,1970-01-01
192,ilulissat,14.92,120.55,78.8,88,90,4.7,PH,1970-01-01
193,banda aceh,41.37,-73.41,72.0,73,75,8.05,US,1970-01-01
194,constitucion,-26.65,15.16,72.59,44,0,13.44,NA,1970-01-01
195,sentyabrskiy,-16.84,36.99,77.04,48,97,7.7,MZ,1970-01-01
196,daru,37.46,-122.43,73.4,87,40,4.32,US,1970-01-01
197,pierre,18.22,-63.06,86.0,74,40,11.41,AI,1970-01-01
198,dikson,51.71,-8.53,68.0,72,75,19.46,IE,1970-01-01
199,kloulklubed,4.38,-7.72,79.29,80,83,12.19,LR,1970-01-01
200,hofn,47.52,122.88,61.0,84,100,9.62,CN,1970-01-01
201,zolotinka,-20.52,57.52,75.2,83,75,11.41,MU,1970-01-01
202,taolanaro,3.98,13.18,76.14,87,14,2.15,CM,1970-01-01
203,lasa,-38.55,-58.74,51.01,79,0,8.01,AR,1970-01-01
204,paka,-17.82,25.15,86.0,13,0,11.41,BW,1970-01-01
205,imari,30.3,111.5,78.01,75,20,4.61,CN,1970-01-01
206,geraldton,-34.0,24.73,68.0,73,0,8.99,ZA,1970-01-01
207,ponta do sol,27.63,93.83,59.94,100,99,1.3,IN,1970-01-01
208,korcula,-25.4,-70.48,62.47,54,14,7.49,CL,1970-01-01
209,makung,42.29,123.84,62.87,92,100,14.14,CN,1970-01-01
210,rabo de peixe,62.23,-6.59,53.6,81,75,31.09,FO,1970-01-01
211,svetlogorsk,41.25,67.97,71.78,22,0,13.15,KZ,1970-01-01
212,salamiyah,20.62,-88.22,80.46,80,38,0.87,MX,1970-01-01
213,lubao,-16.5,27.61,76.86,21,0,11.01,ZM,1970-01-01
214,bethel,2.77,27.62,77.92,77,33,1.88,CD,1970-01-01
215,luderitz,-14.74,-50.57,96.91,15,46,9.78,BR,1970-01-01
216,mocuba,65.82,87.98,49.6,65,100,5.79,RU,1970-01-01
217,half moon bay,48.38,-4.62,66.2,68,90,6.93,FR,1970-01-01
218,the valley,65.97,29.18,51.8,87,75,4.7,FI,1970-01-01
219,kinsale,56.24,43.46,78.8,34,100,6.71,RU,1970-01-01
220,harper,19.22,-104.7,79.52,78,85,3.04,MX,1970-01-01
221,nianzishan,-27.08,152.95,63.0,81,48,7.02,AU,1970-01-01
222,souillac,-27.05,-55.78,60.8,82,90,6.93,PY,1970-01-01
223,abong mbang,34.64,-120.46,62.6,77,1,3.36,US,1970-01-01
224,necochea,15.65,120.64,78.8,88,90,4.7,PH,1970-01-01
225,kasane,64.75,177.48,33.8,64,0,6.71,RU,1970-01-01
226,zhicheng,-21.64,-41.05,78.8,69,20,6.93,BR,1970-01-01
227,kruisfontein,8.36,80.42,80.49,77,94,9.89,LK,1970-01-01
228,ziro,42.8,93.45,80.53,23,100,17.56,CN,1970-01-01
229,taltal,47.87,88.12,52.34,44,58,2.8,CN,1970-01-01
230,tieling,-20.73,139.5,78.8,22,0,6.93,AU,1970-01-01
231,klaksvik,7.62,-11.83,81.46,82,60,6.93,SL,1970-01-01
232,chardara,29.97,40.21,107.6,8,0,11.41,SA,1970-01-01
233,chichimila,-33.48,150.15,48.0,88,0,2.15,AU,1970-01-01
234,gwembe,45.72,27.47,87.8,25,5,9.17,RO,1970-01-01
235,palabuhanratu,-9.67,-35.74,80.6,65,75,13.87,BR,1970-01-01
236,isiro,51.07,-1.8,66.2,68,90,12.75,GB,1970-01-01
237,mozarlandia,45.52,-122.68,63.0,82,1,2.59,US,1970-01-01
238,turukhansk,11.47,49.87,88.86,56,10,3.15,SO,1970-01-01
239,plouzane,41.35,-72.08,75.0,83,1,6.93,US,1970-01-01
240,kuusamo,37.72,-25.43,75.2,64,40,14.99,PT,1970-01-01
241,dzerzhinsk,-6.42,20.8,96.17,26,52,2.17,CD,1970-01-01
242,san patricio,31.61,34.76,90.0,58,0,7.0,IL,1970-01-01
243,caboolture,-26.37,-70.05,68.83,23,6,4.34,CL,1970-01-01
244,jesus,-11.38,43.28,76.96,68,2,6.73,KM,1970-01-01
245,lompoc,18.74,7.39,100.04,22,0,3.89,NE,1970-01-01
246,balite,54.78,-127.17,46.4,100,90,2.24,CA,1970-01-01
247,karistos,-20.41,57.7,75.2,83,75,11.41,MU,1970-01-01
248,anadyr,3.38,-59.8,85.91,65,1,1.3,GY,1970-01-01
249,sao joao da barra,31.65,-106.3,73.0,37,75,7.31,US,1970-01-01
250,cienaga de flores,25.26,63.47,83.55,75,0,20.8,PK,1970-01-01
251,anuradhapura,-0.72,8.78,82.4,69,40,11.65,GA,1970-01-01
252,hami,63.75,-68.51,39.2,80,75,3.36,CA,1970-01-01
253,altay,6.12,81.12,82.4,83,90,5.82,LK,1970-01-01
254,mount isa,25.72,-79.3,83.17,73,100,13.98,BS,1970-01-01
255,mattru,3.78,72.97,83.05,79,100,12.06,MV,1970-01-01
256,sakakah,37.47,-4.44,91.99,31,55,3.0,ES,1970-01-01
257,lithgow,-32.03,-52.1,62.01,68,16,5.99,BR,1970-01-01
258,umbraresti,67.54,133.38,45.1,80,95,4.05,RU,1970-01-01
259,maceio,4.96,18.7,91.4,52,75,4.7,CF,1970-01-01
260,mentok,-28.78,32.04,75.49,54,0,15.43,ZA,1970-01-01
261,salisbury,33.07,107.03,72.95,67,18,2.13,CN,1970-01-01
262,portland,25.02,37.27,95.14,49,0,10.33,SA,1970-01-01
263,qandala,5.66,-67.62,80.6,78,40,2.06,VE,1970-01-01
264,groton,-5.2,-35.46,82.4,61,75,12.75,BR,1970-01-01
265,vila franca do campo,36.06,103.79,72.0,42,17,6.51,CN,1970-01-01
266,tshikapa,-22.97,-42.03,78.8,69,40,9.17,BR,1970-01-01
267,gat,49.25,-55.05,64.99,67,20,11.41,CA,1970-01-01
268,diego de almagro,-10.07,-78.15,64.78,68,6,8.19,PE,1970-01-01
269,marcona,51.09,128.38,57.11,95,100,7.38,RU,1970-01-01
270,mitsamiouli,-0.88,131.25,77.86,89,100,9.06,ID,1970-01-01
271,arlit,37.15,21.58,86.0,45,0,12.75,GR,1970-01-01
272,smithers,28.22,61.22,82.89,13,0,10.02,IR,1970-01-01
273,mahebourg,22.29,114.16,86.0,94,100,1.01,HK,1970-01-01
274,lethem,4.65,119.47,85.24,71,0,7.94,PH,1970-01-01
275,socorro,55.1,-105.28,39.2,60,90,10.29,CA,1970-01-01
276,pasni,-36.72,-73.12,51.8,87,90,4.7,CL,1970-01-01
277,port-gentil,66.15,-65.71,41.0,75,75,2.24,CA,1970-01-01
278,iqaluit,-5.25,39.77,79.11,67,0,11.45,TZ,1970-01-01
279,hambantota,-2.02,147.27,82.24,82,2,11.16,PG,1970-01-01
280,tumannyy,65.97,78.37,50.36,66,100,3.56,RU,1970-01-01
281,amderma,32.18,75.07,91.4,70,20,2.24,PK,1970-01-01
282,alice town,-45.87,-67.5,57.2,44,3,9.17,AR,1970-01-01
283,mahibadhoo,71.29,-156.79,37.4,86,90,5.82,US,1970-01-01
284,cabra,54.54,17.75,62.01,62,20,18.34,PL,1970-01-01
285,rio grande,35.13,140.3,82.0,87,74,5.01,JP,1970-01-01
286,verkhoyansk,17.02,54.09,82.4,78,75,8.05,OM,1970-01-01
287,damara,56.01,90.39,45.61,83,0,2.75,RU,1970-01-01
288,richards bay,-7.96,145.78,78.12,90,48,4.41,PG,1970-01-01
289,hanzhong,26.19,-97.7,79.0,100,75,3.36,US,1970-01-01
290,umm lajj,62.72,32.73,60.69,55,0,8.9,RU,1970-01-01
291,puerto ayacucho,42.62,-113.68,64.4,25,1,11.41,US,1970-01-01
292,touros,4.14,96.13,80.2,82,100,1.72,ID,1970-01-01
293,lanzhou,48.01,91.64,57.11,37,2,11.97,MN,1970-01-01
294,arraial do cabo,-8.9,-35.15,79.92,62,0,9.71,BR,1970-01-01
295,dolbeau,35.54,106.69,66.04,52,54,2.82,CN,1970-01-01
296,lewisporte,34.67,138.95,73.0,94,89,9.78,JP,1970-01-01
297,huarmey,-23.7,133.88,69.8,16,0,4.63,AU,1970-01-01
298,seryshevo,6.5,2.6,82.4,78,40,14.99,BJ,1970-01-01
299,sorong,-8.77,160.7,77.54,83,0,3.62,SB,1970-01-01
300,filiatra,53.13,132.9,48.56,97,89,2.84,RU,1970-01-01
301,khash,14.07,-87.47,69.01,100,75,3.78,HN,1970-01-01
302,victoria,46.19,-123.83,57.0,100,90,3.36,US,1970-01-01
303,ligayan,37.1,-113.58,75.2,14,1,3.2,US,1970-01-01
304,la ronge,-0.89,119.87,76.23,81,100,2.33,ID,1970-01-01
305,talcahuano,47.47,84.87,54.34,59,100,6.29,KZ,1970-01-01
306,pangnirtung,-11.1,-77.61,63.1,70,85,7.63,PE,1970-01-01
307,chake chake,58.13,68.59,49.89,77,95,4.7,RU,1970-01-01
308,bur gabo,-34.48,-54.33,57.29,68,0,10.76,UY,1970-01-01
309,lorengau,20.45,121.97,84.22,68,100,8.03,PH,1970-01-01
310,urengoy,70.86,29.09,53.6,71,75,14.99,NO,1970-01-01
311,fazalpur,-2.65,10.0,78.06,70,68,9.48,GA,1970-01-01
312,comodoro rivadavia,63.84,-22.43,48.2,87,75,14.99,IS,1970-01-01
313,barrow,-37.18,139.75,68.04,41,100,25.72,AU,1970-01-01
314,lebork,8.35,100.2,84.2,89,20,2.24,TH,1970-01-01
315,kamenskoye,-8.19,114.97,78.8,100,20,12.75,ID,1970-01-01
316,katsuura,16.52,-98.75,79.83,79,69,2.57,MX,1970-01-01
317,salalah,71.97,102.5,46.29,72,12,6.42,RU,1970-01-01
318,nazarovo,71.0,24.66,50.0,87,75,6.93,NO,1970-01-01
319,kerema,9.52,-82.7,78.8,83,75,4.7,PA,1970-01-01
320,harlingen,44.3,86.03,67.55,41,62,10.13,CN,1970-01-01
321,porosozero,-41.15,-71.31,39.2,64,75,2.24,AR,1970-01-01
322,rupert,-13.7,-76.22,60.01,87,75,3.36,PE,1970-01-01
323,meulaboh,48.68,24.41,68.0,72,40,13.42,UA,1970-01-01
324,hovd,63.44,-20.27,50.0,87,75,23.04,IS,1970-01-01
325,sao jose da coroa grande,40.97,-117.74,48.2,45,1,3.36,US,1970-01-01
326,pingliang,19.11,37.33,97.65,39,0,9.93,SD,1970-01-01
327,shimoda,42.22,-121.78,57.0,70,1,4.7,US,1970-01-01
328,alice springs,23.19,116.61,78.8,94,40,2.24,CN,1970-01-01
329,porto novo,22.85,69.73,85.23,76,0,15.93,IN,1970-01-01
330,dibaya,69.3,139.9,39.22,96,100,3.0,RU,1970-01-01
331,auki,19.38,-69.85,80.6,83,75,5.06,DO,1970-01-01
332,tokur,17.42,121.44,75.63,91,100,2.53,PH,1970-01-01
333,lepaterique,67.45,153.68,41.95,78,33,11.34,RU,1970-01-01
334,astoria,50.25,-117.8,50.0,94,66,3.0,CA,1970-01-01
335,saint george,65.61,-37.64,37.4,93,7,6.93,GL,1970-01-01
336,palu,22.89,-109.91,78.01,85,18,2.8,MX,1970-01-01
337,zaysan,46.25,-83.57,55.4,66,90,11.41,CA,1970-01-01
338,hualmay,40.85,-74.83,72.0,77,0,6.15,US,1970-01-01
339,abalak,23.9,79.2,81.66,78,2,6.42,IN,1970-01-01
340,rocha,39.96,-4.83,81.0,24,11,10.58,ES,1970-01-01
341,basco,-6.84,-79.93,60.8,82,90,14.99,PE,1970-01-01
342,berlevag,65.28,-126.83,41.0,93,75,10.29,CA,1970-01-01
343,gamba,-22.47,-68.93,51.8,9,0,21.92,CL,1970-01-01
344,grindavik,45.2,21.87,91.0,29,20,3.36,RO,1970-01-01
345,robe,43.65,111.98,67.15,47,4,10.54,CN,1970-01-01
346,pak phanang,60.92,-46.05,46.4,87,40,2.24,GL,1970-01-01
347,banjar,53.96,105.88,53.58,72,68,3.47,RU,1970-01-01
348,tecoanapa,59.7,150.17,45.57,89,13,2.08,RU,1970-01-01
349,khatanga,29.58,-9.5,96.75,17,0,9.78,MA,1970-01-01
350,havoysund,42.9,71.37,64.4,25,6,8.95,KZ,1970-01-01
351,barranco,6.3,-70.2,84.06,73,63,5.48,CO,1970-01-01
352,kazalinsk,-14.88,47.99,85.44,36,5,0.96,MG,1970-01-01
353,shihezi,49.75,-77.63,55.4,93,90,13.62,CA,1970-01-01
354,san carlos de bariloche,14.2,24.67,89.69,27,100,10.69,SD,1970-01-01
355,pisco,67.8,130.41,41.68,84,100,4.59,RU,1970-01-01
356,markova,52.96,4.76,66.99,68,20,16.11,NL,1970-01-01
357,vestmannaeyjar,2.82,-60.67,82.4,74,75,5.82,BR,1970-01-01
358,winnemucca,-31.43,152.92,55.0,94,66,6.91,AU,1970-01-01
359,sawakin,30.36,50.8,102.2,22,20,11.41,IR,1970-01-01
360,klamath falls,-22.96,14.51,60.8,72,9,9.17,NA,1970-01-01
361,haimen,43.52,-114.32,53.6,40,1,10.29,US,1970-01-01
362,mundra,52.03,47.8,75.16,29,2,5.37,RU,1970-01-01
363,deputatskiy,24.14,67.45,84.34,78,5,17.25,PK,1970-01-01
364,nagua,42.65,18.09,80.6,51,24,6.93,HR,1970-01-01
365,tabuk,2.67,72.89,83.17,76,91,12.12,MV,1970-01-01
366,srednekolymsk,34.88,-76.9,79.0,73,20,9.17,US,1970-01-01
367,nakusp,61.18,7.24,46.4,81,75,25.28,NO,1970-01-01
368,tasiilaq,51.23,-58.65,61.36,46,50,4.18,CA,1970-01-01
369,tsihombe,11.67,92.75,83.17,79,100,6.38,IN,1970-01-01
370,cabo san lucas,68.75,161.3,41.52,67,99,6.69,RU,1970-01-01
371,thessalon,9.49,50.81,79.2,71,51,31.23,SO,1970-01-01
372,hackettstown,42.16,-72.33,73.99,75,0,5.99,US,1970-01-01
373,patharia,-26.82,-65.22,59.0,67,90,8.05,AR,1970-01-01
374,talavera de la reina,41.14,-73.36,75.99,73,1,9.17,US,1970-01-01
375,pimentel,67.67,53.09,60.51,89,99,10.98,RU,1970-01-01
376,norman wells,48.98,16.52,73.0,63,100,1.01,CZ,1970-01-01
377,calama,6.13,-5.94,80.2,84,93,3.27,CI,1970-01-01
378,grand centre,-0.9,-89.6,65.43,90,100,14.34,EC,1970-01-01
379,carasova,-17.8,-63.17,71.6,37,75,18.34,BO,1970-01-01
380,erenhot,41.19,61.4,73.94,18,0,12.19,TM,1970-01-01
381,narsaq,35.51,27.21,82.4,61,20,24.16,GR,1970-01-01
382,kachug,-37.88,147.98,48.99,84,0,10.63,AU,1970-01-01
383,arman,-20.59,27.31,80.6,21,0,11.41,BW,1970-01-01
384,tiznit,67.67,12.69,53.6,81,75,17.22,NO,1970-01-01
385,taraz,10.48,16.71,81.57,68,43,5.32,TD,1970-01-01
386,cravo norte,-15.77,128.73,77.0,30,82,5.46,AU,1970-01-01
387,antsohihy,14.92,-23.51,84.2,70,90,14.99,CV,1970-01-01
388,matagami,64.5,-165.41,46.4,93,90,13.87,US,1970-01-01
389,kutum,61.15,149.63,39.52,87,29,2.33,RU,1970-01-01
390,batagay-alyta,35.84,-90.7,80.01,83,20,10.45,US,1970-01-01
391,den helder,17.87,120.46,80.28,85,100,2.93,PH,1970-01-01
392,ayios kirikos,-17.23,-67.92,50.67,51,66,7.78,BO,1970-01-01
393,boa vista,25.34,-108.26,77.0,93,59,1.01,MX,1970-01-01
394,port macquarie,-3.8,102.27,78.17,90,4,9.95,ID,1970-01-01
395,do gonbadan,49.43,18.29,66.2,67,40,9.17,CZ,1970-01-01
396,walvis bay,55.17,124.72,50.32,87,0,4.34,RU,1970-01-01
397,hailey,18.42,-70.03,87.01,78,75,6.96,DO,1970-01-01
398,balakovo,-9.43,159.95,75.2,94,20,5.82,SB,1970-01-01
399,keti bandar,39.45,-86.18,73.99,78,90,5.82,US,1970-01-01
400,dubrovnik,70.47,-68.59,37.4,86,90,5.82,CA,1970-01-01
401,kudahuvadhoo,31.34,69.45,85.66,13,0,7.43,PK,1970-01-01
402,havelock,15.17,44.32,74.5,23,19,14.56,YE,1970-01-01
403,kaupanger,14.53,20.92,90.9,42,99,2.51,TD,1970-01-01
404,saint-augustin,61.87,28.88,60.8,59,40,10.29,FI,1970-01-01
405,port blair,55.46,-4.63,62.6,88,75,14.99,GB,1970-01-01
406,cherskiy,58.21,-6.39,59.0,93,75,17.22,GB,1970-01-01
407,bandarbeyla,16.86,-99.89,77.0,88,75,4.7,MX,1970-01-01
408,palmer,-10.62,150.67,78.01,88,65,16.71,PG,1970-01-01
409,tucuman,43.74,135.29,66.07,95,100,13.2,RU,1970-01-01
410,westport,23.45,108.59,76.64,92,100,2.82,CN,1970-01-01
411,naryan-mar,39.03,46.72,87.44,34,46,7.72,AZ,1970-01-01
412,pohorelice,-20.28,44.28,76.62,64,3,13.78,MG,1970-01-01
413,gagnoa,-8.01,-34.86,82.4,65,40,11.41,BR,1970-01-01
414,puerto baquerizo moreno,-5.4,-40.31,91.36,26,0,8.84,BR,1970-01-01
415,santa cruz,-3.94,122.5,75.78,90,96,4.7,ID,1970-01-01
416,gazojak,-13.51,28.16,86.02,13,0,8.05,ZM,1970-01-01
417,karpathos,45.32,55.2,75.92,19,83,9.57,KZ,1970-01-01
418,lakes entrance,57.13,73.83,45.36,95,45,5.99,RU,1970-01-01
419,kalakamati,5.93,15.6,73.63,90,40,4.45,CF,1970-01-01
420,sorland,-1.83,-44.87,89.71,48,0,8.55,BR,1970-01-01
421,bousso,5.67,-0.02,80.6,78,40,17.22,GH,1970-01-01
422,kununurra,23.12,83.2,78.35,78,93,2.33,IN,1970-01-01
423,praia,68.22,-135.01,46.4,70,75,11.41,CA,1970-01-01
424,nome,10.4,5.47,82.71,71,60,4.52,NG,1970-01-01
425,ust-omchug,49.92,-109.48,44.22,74,100,13.15,CA,1970-01-01
426,jonesboro,61.67,96.37,47.71,69,100,3.04,RU,1970-01-01
427,sinait,38.73,-27.07,73.0,88,75,21.79,PT,1970-01-01
428,patacamaya,25.29,51.53,100.0,53,0,8.05,QA,1970-01-01
429,nacozari,53.6,91.39,55.4,82,98,2.24,RU,1970-01-01
430,bengkulu,50.37,103.29,52.25,85,69,2.37,RU,1970-01-01
431,horni becva,-41.41,175.52,41.0,93,57,3.36,NZ,1970-01-01
432,tynda,40.84,22.78,89.01,38,50,1.99,GR,1970-01-01
433,bajos de haina,4.42,-7.35,78.69,82,95,12.3,CI,1970-01-01
434,honiara,20.93,-17.03,91.4,55,100,8.05,MR,1970-01-01
435,bud,25.85,83.85,88.11,67,86,2.89,IN,1970-01-01
436,clyde river,65.7,82.47,46.15,73,1,3.13,RU,1970-01-01
437,zhob,8.0,124.29,78.01,89,91,3.0,PH,1970-01-01
438,sayyan,39.36,-9.38,84.0,54,0,5.99,PT,1970-01-01
439,biltine,-21.69,165.68,68.0,77,90,10.29,NC,1970-01-01
440,savonlinna,60.87,60.42,60.21,79,30,1.28,RU,1970-01-01
441,ayr,-1.88,15.86,87.98,49,100,3.94,CG,1970-01-01
442,stornoway,-23.86,35.38,75.2,57,40,6.93,MZ,1970-01-01
443,acapulco,0.52,25.2,87.8,58,75,6.93,CD,1970-01-01
444,samarai,61.3,17.06,63.03,47,56,7.52,SE,1970-01-01
445,olga,8.46,25.68,77.18,79,86,5.03,SS,1970-01-01
446,dafeng,60.55,-151.26,48.2,87,90,8.23,US,1970-01-01
447,mincivan,50.36,108.75,53.53,76,0,2.19,RU,1970-01-01
448,nizhneyansk,54.25,12.47,66.99,51,75,8.05,DE,1970-01-01
449,morondava,-3.37,135.48,77.04,87,91,3.13,ID,1970-01-01
450,olinda,-8.74,24.99,89.22,15,0,5.3,CD,1970-01-01
451,independencia,-23.49,-58.8,68.09,67,98,7.78,PY,1970-01-01
452,kendari,51.18,14.43,69.01,62,22,7.9,DE,1970-01-01
453,mpongwe,16.92,97.37,80.11,86,100,3.91,MM,1970-01-01
454,beyneu,-24.79,-65.41,59.0,58,40,3.36,AR,1970-01-01
455,znamenskoye,8.53,28.1,82.02,69,14,8.1,SS,1970-01-01
456,bouar,46.0,8.75,68.0,72,75,3.36,IT,1970-01-01
457,cururupu,46.49,135.88,57.51,93,100,3.94,RU,1970-01-01
458,tema,50.37,129.11,57.27,96,100,7.07,RU,1970-01-01
459,ambikapur,-35.12,139.27,75.99,28,100,17.0,AU,1970-01-01
460,aklavik,-9.2,25.85,99.01,12,0,0.89,CD,1970-01-01
461,kontagora,70.37,31.11,53.6,81,75,11.41,NO,1970-01-01
462,maple creek,-9.83,-45.34,89.64,28,53,9.93,BR,1970-01-01
463,baykit,50.72,136.63,59.22,93,100,5.21,RU,1970-01-01
464,praia da vitoria,50.86,0.57,66.2,72,20,19.46,GB,1970-01-01
465,inderborskiy,-17.45,-66.38,66.2,39,75,4.7,BO,1970-01-01
466,doha,22.68,-3.98,109.15,11,0,4.32,ML,1970-01-01
467,belyy yar,48.83,58.14,72.45,22,0,8.08,KZ,1970-01-01
468,zakamensk,1.05,101.28,78.8,78,40,2.98,ID,1970-01-01
469,waipawa,48.81,103.53,53.4,81,44,1.66,MN,1970-01-01
470,mikrokambos,56.55,37.88,68.94,73,99,4.5,RU,1970-01-01
471,tabou,-29.68,-53.81,59.0,82,90,14.99,BR,1970-01-01
472,nouadhibou,0.57,12.86,81.16,63,85,2.62,GA,1970-01-01
473,rasra,49.78,-74.85,50.0,100,90,19.46,CA,1970-01-01
474,krasnoselkup,63.46,48.9,65.7,69,100,7.78,RU,1970-01-01
475,marawi,55.2,48.51,73.4,43,3,8.95,RU,1970-01-01
476,peniche,46.37,33.54,80.2,54,13,11.25,UA,1970-01-01
477,moindou,-15.2,12.15,78.8,65,20,23.04,AO,1970-01-01
478,polunochnoye,58.69,99.18,51.15,72,100,4.61,RU,1970-01-01
479,gamboma,46.87,-96.77,48.2,87,1,9.17,US,1970-01-01
480,inhambane,65.58,-171.0,40.8,79,100,20.11,RU,1970-01-01
481,kisangani,65.68,-18.09,48.2,49,75,11.41,IS,1970-01-01
482,soderhamn,-23.35,47.6,70.9,79,13,7.0,MG,1970-01-01
483,samalaeulu,63.01,112.47,44.87,96,100,8.19,RU,1970-01-01
484,raga,42.25,-75.83,70.0,81,76,13.0,US,1970-01-01
485,kenai,45.25,77.98,55.04,36,0,5.14,KZ,1970-01-01
486,krasnyy chikoy,36.68,-121.66,69.8,68,1,0.74,US,1970-01-01
487,ribnitz-damgarten,43.3,52.8,79.45,16,34,18.03,KZ,1970-01-01
488,nabire,27.08,-101.53,73.99,88,100,1.99,MX,1970-01-01
489,kamina,26.1,74.32,85.75,56,44,5.91,IN,1970-01-01
490,pozo colorado,53.05,158.65,53.6,100,75,4.47,RU,1970-01-01
491,bautzen,43.44,43.53,77.0,57,75,2.24,RU,1970-01-01
492,thaton,26.06,119.31,82.4,61,94,6.71,CN,1970-01-01
493,salta,-23.45,-56.58,71.65,68,100,4.56,PY,1970-01-01
494,gogrial,-20.97,164.7,67.93,83,100,4.41,NC,1970-01-01
495,luino,28.78,105.09,76.39,77,1,1.36,CN,1970-01-01
496,vostok,33.91,-98.49,75.99,78,1,9.17,US,1970-01-01
497,yekaterinoslavka,-33.04,-71.63,53.01,100,75,4.16,CL,1970-01-01
498,halalo,22.24,68.97,84.63,80,32,13.04,IN,1970-01-01
499,murray bridge,-0.6,-80.42,71.6,78,90,6.93,EC,1970-01-01
500,malwan,37.83,24.93,82.0,41,0,7.0,GR,1970-01-01
501,bukama,-0.61,-47.36,85.82,63,0,12.1,BR,1970-01-01
502,vardo,48.83,-64.48,53.6,76,20,2.24,CA,1970-01-01
503,gilbues,36.41,64.91,75.9,16,0,8.63,AF,1970-01-01
504,solnechnyy,4.88,-1.76,80.82,71,93,12.82,GH,1970-01-01
505,hastings,-18.65,-173.98,75.2,60,40,6.93,TO,1970-01-01
506,sipe sipe,32.25,-101.48,71.6,73,1,18.34,US,1970-01-01
507,taoudenni,-26.58,18.13,91.0,11,0,9.22,NA,1970-01-01
508,emba,60.15,-1.15,55.4,93,90,21.92,GB,1970-01-01
509,balaipungut,-9.86,124.28,62.94,99,25,6.42,ID,1970-01-01
510,naugarzan,-7.61,15.06,80.6,57,75,9.17,AO,1970-01-01
511,jiddah,15.85,-97.07,73.4,78,75,5.82,MX,1970-01-01
512,bulgan,-20.01,57.66,73.99,83,82,4.0,MU,1970-01-01
513,bogorodskoye,11.53,106.92,77.7,93,100,2.91,VN,1970-01-01
514,santa maria,4.08,-72.96,82.35,73,10,3.09,CO,1970-01-01
515,makokou,-35.62,174.5,52.0,3,0,5.01,NZ,1970-01-01
516,chapais,68.05,166.44,33.57,88,100,1.83,RU,1970-01-01
517,koslan,56.91,118.26,54.99,78,74,2.08,RU,1970-01-01
518,apastovo,37.78,-121.98,77.0,43,1,0.63,US,1970-01-01
519,chaplynka,45.84,-119.29,73.0,46,1,2.64,US,1970-01-01
520,namibe,43.52,-8.15,73.99,64,20,3.0,ES,1970-01-01
521,kodinsk,45.25,-81.67,63.21,80,90,25.19,CA,1970-01-01
522,moorhead,45.65,26.98,87.8,25,5,9.17,RO,1970-01-01
523,lavrentiya,59.94,55.0,61.83,74,0,3.74,RU,1970-01-01
524,akureyri,-20.57,164.28,70.03,79,100,6.73,NC,1970-01-01
525,vangaindrano,27.37,87.2,75.18,73,95,0.49,NP,1970-01-01
526,chernyshevskiy,-23.65,-70.4,55.4,71,75,10.29,CL,1970-01-01
527,broome,47.6,-53.26,66.0,54,0,5.55,CA,1970-01-01
528,ushtobe,55.12,83.91,46.38,81,100,4.88,RU,1970-01-01
529,salinas,61.99,5.14,52.0,87,100,38.41,NO,1970-01-01
530,skagastrond,-51.62,-69.22,39.2,93,100,4.7,AR,1970-01-01
531,zhanaozen,13.48,-88.18,79.09,85,71,1.59,SV,1970-01-01
532,san buenaventura,7.42,81.82,83.89,74,100,4.63,LK,1970-01-01
533,beawar,-2.67,141.3,79.56,85,2,7.83,PG,1970-01-01
534,petropavlovsk-kamchatskiy,16.81,96.16,78.8,100,90,3.36,MM,1970-01-01
535,rolim de moura,8.08,22.4,77.38,80,85,0.72,CF,1970-01-01
536,belaya rechka,-16.5,-68.15,48.2,61,75,9.17,BO,1970-01-01
537,zhemchuzhnyy,12.28,-10.97,84.29,72,67,4.54,ML,1970-01-01
538,fuzhou,-8.1,156.84,81.57,78,19,6.8,SB,1970-01-01
539,tacuati,-40.85,172.8,50.0,86,95,1.01,NZ,1970-01-01
540,voh,46.43,26.4,82.99,56,0,5.06,RO,1970-01-01
541,tongzi,66.77,123.37,43.66,79,0,13.02,RU,1970-01-01
542,wichita falls,44.72,40.88,81.28,47,9,6.11,RU,1970-01-01
543,valparaiso,-28.57,-70.76,65.79,37,0,2.93,CL,1970-01-01
544,dwarka,-0.95,100.35,80.04,75,100,2.39,ID,1970-01-01
545,yirol,51.31,119.61,51.33,84,0,5.17,RU,1970-01-01
546,bahia de caraquez,5.18,97.15,79.97,82,91,3.98,ID,1970-01-01
547,andros,43.32,145.57,68.49,96,92,8.34,JP,1970-01-01
548,salinopolis,38.17,32.5,86.0,25,20,9.17,TR,1970-01-01
549,gaspe,63.86,57.31,63.91,68,56,7.02,RU,1970-01-01
550,dawlatabad,45.48,133.42,62.13,93,100,16.02,RU,1970-01-01
551,takoradi,53.57,142.95,50.83,94,5,7.02,RU,1970-01-01
552,neiafu,49.97,39.69,80.02,19,83,10.02,RU,1970-01-01
553,bacuit,20.89,-156.47,77.0,78,90,16.11,US,1970-01-01
554,big spring,60.6,15.63,64.0,45,40,8.05,SE,1970-01-01
555,keetmanshoop,63.64,54.86,64.15,70,44,6.33,RU,1970-01-01
556,lerwick,-32.37,-54.18,58.98,72,2,14.56,UY,1970-01-01
557,soe,61.92,63.02,54.82,50,0,4.25,RU,1970-01-01
558,uige,-12.58,13.41,76.73,66,14,8.77,AO,1970-01-01
559,puerto escondido,51.38,1.39,68.0,66,100,3.0,GB,1970-01-01
560,grand gaube,63.2,75.45,48.58,77,70,3.49,RU,1970-01-01
561,dong xoai,45.02,-93.22,55.4,71,1,12.75,US,1970-01-01
562,puerto lopez,49.12,131.18,58.03,86,100,4.27,RU,1970-01-01
563,ngunguru,35.23,-77.65,68.0,88,1,6.93,US,1970-01-01
564,bilibino,64.18,-51.72,42.8,87,75,5.82,GL,1970-01-01
565,chara,51.86,-4.31,63.0,89,100,10.0,GB,1970-01-01
566,san ramon,68.56,14.91,53.6,81,75,13.87,NO,1970-01-01
567,hermiston,-16.1,167.42,75.42,82,58,14.03,VU,1970-01-01
568,naron,43.22,-123.34,57.2,71,1,1.43,US,1970-01-01
569,tobermory,45.17,10.78,80.01,67,98,7.0,IT,1970-01-01
570,poiana cristei,26.5,78.0,86.59,66,26,4.05,IN,1970-01-01
571,tabiauea,-20.9,-51.38,92.8,19,3,11.81,BR,1970-01-01
572,kosa,-25.3,152.85,64.0,93,0,3.0,AU,1970-01-01
573,koumac,-34.73,135.87,61.68,71,85,17.18,AU,1970-01-01
574,khandbari,-42.77,-65.04,57.67,48,0,22.55,AR,1970-01-01
575,antofagasta,-28.55,16.43,66.9,52,0,16.91,NA,1970-01-01
576,bay roberts,31.45,12.98,100.69,12,66,10.54,LY,1970-01-01
577,gornyy,-0.95,-80.73,71.6,78,90,6.93,EC,1970-01-01
